[
  {
    "en": "Noryangjin Fish Market",
    "picked": {
      "koName": "고흥완도수산 노량진수산시장횟집",
      "kakaoId": "197830965",
      "lat": 37.5148593717798,
      "lng": 126.938503249339,
      "category": "가정,생활 > 식품판매 > 수산물판매",
      "address": "서울 동작구 노들로 674",
      "query": "노량진수산시장"
    },
    "candidates": [
      {
        "koName": "고흥완도수산 노량진수산시장횟집",
        "kakaoId": "197830965",
        "lat": 37.5148593717798,
        "lng": 126.938503249339,
        "category": "가정,생활 > 식품판매 > 수산물판매",
        "address": "서울 동작구 노들로 674",
        "query": "노량진수산시장"
      },
      {
        "koName": "노량진수산시장성당",
        "kakaoId": "1155088035",
        "lat": 37.51434018423454,
        "lng": 126.93984630576587,
        "category": "문화,예술 > 종교 > 천주교 > 성당",
        "address": "서울 동작구 노들로2길 9-8",
        "query": "노량진수산시장"
      },
      {
        "koName": "끄트머리 노량진수산시장",
        "kakaoId": "1200289670",
        "lat": 37.514855614293374,
        "lng": 126.93651021869208,
        "category": "음식점 > 한식 > 해물,생선",
        "address": "서울 동작구 노들로 674",
        "query": "노량진수산시장"
      },
      {
        "koName": "벌교아줌마 노량진수산시장",
        "kakaoId": "357649586",
        "lat": 37.514810533332394,
        "lng": 126.93815038013288,
        "category": "음식점 > 한식 > 해물,생선 > 회",
        "address": "서울 동작구 노들로 674",
        "query": "Noryangjin Fish Market"
      },
      {
        "koName": "부산갈매기 노량진수산시장",
        "kakaoId": "1010913928",
        "lat": 37.51485014014316,
        "lng": 126.93807908688161,
        "category": "가정,생활 > 식품판매 > 수산물판매",
        "address": "서울 동작구 노들로 674",
        "query": "Noryangjin Fish Market"
      },
      {
        "koName": "루디아노량진수산시장",
        "kakaoId": "341084788",
        "lat": 37.514869959844354,
        "lng": 126.93807454602481,
        "category": "가정,생활 > 식품판매 > 수산물판매",
        "address": "서울 동작구 노들로 674",
        "query": "Noryangjin Fish Market"
      },
      {
        "koName": "노량진수산물도매시장",
        "kakaoId": "8205369",
        "lat": 37.514766187527776,
        "lng": 126.93777601640095,
        "category": "가정,생활 > 시장",
        "address": "서울 동작구 노들로 674",
        "query": "노량진수산시장"
      },
      {
        "koName": "노량진수산물도매시장 남 1문",
        "kakaoId": "2050638636",
        "lat": 37.514557433022,
        "lng": 126.938306682967,
        "category": "교통,수송 > 입출구",
        "address": "서울 동작구 노들로 674",
        "query": "노량진수산시장"
      }
    ]
  },
  {
    "en": "Majang Meat Market",
    "picked": {
      "koName": "홍익한우 마장동축산시장",
      "kakaoId": "1889488978",
      "lat": 37.5706841882408,
      "lng": 127.041275938107,
      "category": "가정,생활 > 식품판매 > 정육점",
      "address": "서울 성동구 마장로35길 68",
      "query": "마장동축산시장"
    },
    "candidates": [
      {
        "koName": "홍익한우 마장동축산시장",
        "kakaoId": "1889488978",
        "lat": 37.5706841882408,
        "lng": 127.041275938107,
        "category": "가정,생활 > 식품판매 > 정육점",
        "address": "서울 성동구 마장로35길 68",
        "query": "마장동축산시장"
      },
      {
        "koName": "마장축산물시장",
        "kakaoId": "10335476",
        "lat": 37.57068418982381,
        "lng": 127.04127141025155,
        "category": "가정,생활 > 시장",
        "address": "서울 성동구 마장로35길 68",
        "query": "마장동축산시장"
      }
    ]
  },
  {
    "en": "Seoul Folk Flea Market",
    "picked": {
      "koName": "서울풍물시장",
      "kakaoId": "10500235",
      "lat": 37.5728186254633,
      "lng": 127.025392943199,
      "category": "가정,생활 > 시장",
      "address": "서울 동대문구 천호대로4길 21",
      "query": "서울풍물시장"
    },
    "candidates": [
      {
        "koName": "서울풍물시장",
        "kakaoId": "10500235",
        "lat": 37.5728186254633,
        "lng": 127.025392943199,
        "category": "가정,생활 > 시장",
        "address": "서울 동대문구 천호대로4길 21",
        "query": "서울풍물시장"
      },
      {
        "koName": "서울풍물시장 후문",
        "kakaoId": "1545173796",
        "lat": 37.5733808957001,
        "lng": 127.025162205112,
        "category": "교통,수송 > 입출구",
        "address": "서울 동대문구 천호대로4길 19-3",
        "query": "서울풍물시장"
      },
      {
        "koName": "서울풍물시장 상인회",
        "kakaoId": "1814561334",
        "lat": 37.5728258343963,
        "lng": 127.02538841766,
        "category": "사회,공공기관 > 단체,협회",
        "address": "서울 동대문구 천호대로4길 21",
        "query": "서울풍물시장"
      },
      {
        "koName": "서울풍물시장 서울상사",
        "kakaoId": "12184973",
        "lat": 37.5728078174189,
        "lng": 127.02537482759,
        "category": "가정,생활 > 시장",
        "address": "서울 동대문구 천호대로4길 21",
        "query": "서울풍물시장"
      },
      {
        "koName": "서울풍물시장 파랑동62호",
        "kakaoId": "1175762490",
        "lat": 37.5727131853898,
        "lng": 127.025502710893,
        "category": "문화,예술 > 미술,공예 > 골동품",
        "address": "서울 동대문구 천호대로4길 21",
        "query": "서울풍물시장"
      },
      {
        "koName": "서울풍물시장 주황동89호",
        "kakaoId": "12209634",
        "lat": 37.5728294374021,
        "lng": 127.02539294687,
        "category": "가정,생활 > 패션 > 의류판매",
        "address": "서울 동대문구 천호대로4길 21",
        "query": "서울풍물시장"
      },
      {
        "koName": "백상서울풍물시장 관리사무소",
        "kakaoId": "16584374",
        "lat": 37.57271318538982,
        "lng": 127.02550271089264,
        "category": "서비스,산업 > 관리,운영 > 건물관리사무소",
        "address": "서울 동대문구 천호대로4길 21",
        "query": "서울풍물시장"
      },
      {
        "koName": "풍물시장가발",
        "kakaoId": "1886546726",
        "lat": 37.5728186264371,
        "lng": 127.025388415214,
        "category": "가정,생활 > 미용 > 가발",
        "address": "서울 동대문구 천호대로4길 21",
        "query": "서울풍물시장"
      }
    ]
  },
  {
    "en": "Garak Market",
    "picked": {
      "koName": "가락시장",
      "kakaoId": "27314504",
      "lat": 37.4938884413034,
      "lng": 127.110927336635,
      "category": "가정,생활 > 시장",
      "address": "서울 송파구 양재대로 932",
      "query": "가락시장"
    },
    "candidates": [
      {
        "koName": "가락시장",
        "kakaoId": "27314504",
        "lat": 37.4938884413034,
        "lng": 127.110927336635,
        "category": "가정,생활 > 시장",
        "address": "서울 송파구 양재대로 932",
        "query": "가락시장"
      },
      {
        "koName": "가락시장역 8호선",
        "kakaoId": "21160731",
        "lat": 37.4930992522183,
        "lng": 127.118262745146,
        "category": "교통,수송 > 지하철,전철 > 수도권8호선",
        "address": "서울 송파구 송파대로 지하 257",
        "query": "가락시장"
      },
      {
        "koName": "가락시장 남문",
        "kakaoId": "27392029",
        "lat": 37.4908894094379,
        "lng": 127.111438527234,
        "category": "교통,수송 > 입출구",
        "address": "서울 송파구 양재대로 932",
        "query": "가락시장"
      },
      {
        "koName": "다이소 가락시장역점",
        "kakaoId": "27442702",
        "lat": 37.49371154901518,
        "lng": 127.12043032482507,
        "category": "가정,생활 > 생활용품점 > 다이소",
        "address": "서울 송파구 중대로 109",
        "query": "가락시장"
      },
      {
        "koName": "만애옥 송파가락시장본점",
        "kakaoId": "2046188315",
        "lat": 37.4906389259002,
        "lng": 127.120616489069,
        "category": "음식점 > 한식 > 해물,생선",
        "address": "서울 송파구 송파대로24길 5-19",
        "query": "가락시장"
      },
      {
        "koName": "가락시장역 3호선",
        "kakaoId": "27260940",
        "lat": 37.4922493218664,
        "lng": 127.11764173832,
        "category": "교통,수송 > 지하철,전철 > 수도권3호선",
        "address": "서울 송파구 송파대로 지하 257",
        "query": "가락시장"
      },
      {
        "koName": "소담촌 가락시장직영점",
        "kakaoId": "1081627362",
        "lat": 37.494251391126,
        "lng": 127.119405547991,
        "category": "음식점 > 샤브샤브",
        "address": "서울 송파구 송파대로28길 13",
        "query": "Garak Market"
      },
      {
        "koName": "가락시장역정류소",
        "kakaoId": "26572204",
        "lat": 37.49432478091015,
        "lng": 127.11719832370156,
        "category": "교통,수송 > 교통시설 > 고속,시외버스정류장",
        "address": "서울 송파구 가락동 172-9",
        "query": "Garak Market"
      }
    ]
  },
  {
    "en": "Hwanghak-dong Flea Market",
    "picked": {
      "koName": "황학동벼룩시장",
      "kakaoId": "18347186",
      "lat": 37.5690646630335,
      "lng": 127.017821256877,
      "category": "가정,생활 > 시장",
      "address": "서울 중구 황학동 161",
      "query": "황학동벼룩시장"
    },
    "candidates": [
      {
        "koName": "황학동벼룩시장",
        "kakaoId": "18347186",
        "lat": 37.5690646630335,
        "lng": 127.017821256877,
        "category": "가정,생활 > 시장",
        "address": "서울 중구 황학동 161",
        "query": "황학동벼룩시장"
      },
      {
        "koName": "동묘벼룩시장",
        "kakaoId": "25671601",
        "lat": 37.573138261706326,
        "lng": 127.01766834432729,
        "category": "가정,생활 > 시장",
        "address": "서울 종로구 숭인동 102-8",
        "query": "황학동벼룩시장"
      },
      {
        "koName": "서울풍물시장",
        "kakaoId": "10500235",
        "lat": 37.5728186254633,
        "lng": 127.025392943199,
        "category": "가정,생활 > 시장",
        "address": "서울 동대문구 천호대로4길 21",
        "query": "Hwanghak-dong Flea Market"
      },
      {
        "koName": "독립벼룩시장신문",
        "kakaoId": "470931700",
        "lat": 37.5739113714618,
        "lng": 127.021680311842,
        "category": "언론,미디어 > 신문",
        "address": "서울 종로구 종로66길 20",
        "query": "황학동 벼룩시장"
      }
    ]
  }
]